[
    {
        "code": "JFK",
        "name": "John F. Kennedy International",
        "city": "New York",
        "country": "USA",
        "lat": 40.6413,
        "lng": -73.7781
    },
    {
        "code": "LHR",
        "name": "Heathrow",
        "city": "London",
        "country": "UK",
        "lat": 51.4700,
        "lng": -0.4543
    },
    {
        "code": "CDG",
        "name": "Charles de Gaulle",
        "city": "Paris",
        "country": "France",
        "lat": 49.0097,
        "lng": 2.5479
    },
    {
        "code": "FRA",
        "name": "Frankfurt",
        "city": "Frankfurt",
        "country": "Germany",
        "lat": 50.0379,
        "lng": 8.5622
    },
    {
        "code": "DXB",
        "name": "Dubai International",
        "city": "Dubai",
        "country": "UAE",
        "lat": 25.2532,
        "lng": 55.3657
    },
    {
        "code": "DEL",
        "name": "Indira Gandhi International",
        "city": "Delhi",
        "country": "India",
        "lat": 28.5562,
        "lng": 77.1000
    },
    {
        "code": "BOM",
        "name": "Chhatrapati Shivaji",
        "city": "Mumbai",
        "country": "India",
        "lat": 19.0896,
        "lng": 72.8656
    },
    {
        "code": "SIN",
        "name": "Changi",
        "city": "Singapore",
        "country": "Singapore",
        "lat": 1.3644,
        "lng": 103.9915
    },
    {
        "code": "BKK",
        "name": "Suvarnabhumi",
        "city": "Bangkok",
        "country": "Thailand",
        "lat": 13.6900,
        "lng": 100.7501
    },
    {
        "code": "HND",
        "name": "Haneda",
        "city": "Tokyo",
        "country": "Japan",
        "lat": 35.5494,
        "lng": 139.7798
    },
    {
        "code": "SYD",
        "name": "Sydney Kingsford Smith",
        "city": "Sydney",
        "country": "Australia",
        "lat": -33.9399,
        "lng": 151.1753
    },
    {
        "code": "LAX",
        "name": "Los Angeles International",
        "city": "Los Angeles",
        "country": "USA",
        "lat": 33.9416,
        "lng": -118.4085
    },
    {
        "code": "SFO",
        "name": "San Francisco International",
        "city": "San Francisco",
        "country": "USA",
        "lat": 37.6213,
        "lng": -122.3790
    },
    {
        "code": "YYZ",
        "name": "Toronto Pearson",
        "city": "Toronto",
        "country": "Canada",
        "lat": 43.6777,
        "lng": -79.6248
    },
    {
        "code": "GRU",
        "name": "Guarulhos International",
        "city": "São Paulo",
        "country": "Brazil",
        "lat": -23.4356,
        "lng": -46.4731
    }
]